<?xml version="1.0" encoding="UTF-8"?>
<markers>
    <country lat="50.7086" lng="10.6348" zoom="5" name="nextbike Germany" hotline="+493069205046" domain="de"
             country="DE" country_name="Germany" terms="http://www.nextbike.de/media/AGB_Maerz2017_de-en.pdf" policy=""
             website="https://www.nextbike.de/" booked_bikes="0" set_point_bikes="2819" available_bikes="1267"
             capped_available_bikes="1">
        <city uid="1" lat="51.3415" lng="12.3625" zoom="14" maps_icon="" alias="leipzig" break="0" name="Leipzig"
              num_places="95" refresh_rate="1146"
              bounds="{&quot;south_west&quot;:{&quot;lat&quot;:51.3012,&quot;lng&quot;:12.2872},&quot;north_east&quot;:{&quot;lat&quot;:51.4021,&quot;lng&quot;:12.4371}}"
              booked_bikes="0" set_point_bikes="719" available_bikes="232">
            <place uid="28" lat="51.340505159701" lng="12.368813753128" name="Gottschedstr. / Bosestr." spot="1"
                   number="4013" bikes="2" free_racks="0" terminal_type="free" bike_numbers="10311,10652"
                   bike_types="{&quot;5&quot;:2}" place_type="0">
                <bike number="10311" bike_type="0" active="1" state="ok"/>
                <bike number="10652" bike_type="0" active="1" state="ok"/>
            </place>
            <place uid="72" lat="51.339077567821" lng="12.381554245949" name="Augustusplatz / Oper" spot="1"
                   number="4003" bikes="4" free_racks="0" terminal_type="free" bike_numbers="05653,05803,07036,20447"
                   bike_types="{&quot;5&quot;:2,&quot;4&quot;:1,&quot;15&quot;:1}" place_type="0">
                <bike number="05653" bike_type="0" active="1" state="ok"/>
                <bike number="05803" bike_type="0" active="1" state="ok"/>
                <bike number="07036" bike_type="0" active="1" state="ok"/>
                <bike number="20447" bike_type="15" active="1" state="ok" electric_lock="1" boardcomputer="11289"/>
            </place>
            <place uid="125" lat="51.339637215946" lng="12.373212575912" name="Thomaskirchhof / Taxistand" spot="1"
                   number="4006" bikes="3" free_racks="0" terminal_type="free" bike_numbers="05690,10680,10186"
                   bike_types="{&quot;5&quot;:1,&quot;4&quot;:1,&quot;14&quot;:1}" place_type="0">
                <bike number="05690" bike_type="0" active="1" state="ok"/>
                <bike number="10680" bike_type="0" active="1" state="ok"/>
                <bike number="10186" bike_type="0" active="1" state="ok"/>
            </place>
            <place uid="128" lat="51.337076853681" lng="12.372853159904" name="Burgplatz / Stadthaus" spot="1"
                   number="4011" bikes="2" free_racks="0" terminal_type="free" bike_numbers="05823,10611"
                   bike_types="{&quot;5&quot;:1,&quot;4&quot;:1}" place_type="0">
                <bike number="05823" bike_type="0" active="1" state="ok"/>
                <bike number="10611" bike_type="0" active="1" state="ok"/>
            </place>
            <place uid="801" lat="51.320789736538" lng="12.373319864273"
                   name="Karl-Liebknecht-Str. / Kurt-Eisner-Str. / Bäcker" spot="1" number="4014" bikes="2"
                   free_racks="0" terminal_type="free" bike_numbers="10599,05750"
                   bike_types="{&quot;5&quot;:1,&quot;4&quot;:1}" place_type="0">
                <bike number="10599" bike_type="0" active="1" state="ok"/>
                <bike number="05750" bike_type="0" active="1" state="ok"/>
            </place>
            <place uid="1615" lat="51.343068681395" lng="12.365182042122" name="Jahnallee / Thomasiusstr. / Denkmal"
                   spot="1" number="4007" bikes="2" free_racks="0" terminal_type="free" bike_numbers="10337,05821"
                   bike_types="{&quot;5&quot;:2}" place_type="0">
                <bike number="10337" bike_type="0" active="1" state="ok"/>
                <bike number="05821" bike_type="0" active="1" state="ok"/>
            </place>
            <place uid="1727" lat="51.324537727221" lng="12.373394966125" name="Südplatz (LVB Mobilitätsstation 10) "
                   spot="1" number="4005" bikes="1" free_racks="0" terminal_type="free" bike_numbers="10716"
                   bike_types="{&quot;14&quot;:1}" place_type="0">
                <bike number="10716" bike_type="0" active="1" state="ok"/>
            </place>
            <place uid="2031" lat="51.332032789785" lng="12.367199063301" name="Grassistr. / Beethovenstr." spot="1"
                   number="4021" bikes="4" free_racks="0" terminal_type="free" bike_numbers="05534,05530,10113,10615"
                   bike_types="{&quot;5&quot;:4}" place_type="0">
                <bike number="05534" bike_type="0" active="1" state="ok"/>
                <bike number="05530" bike_type="0" active="1" state="ok"/>
                <bike number="10113" bike_type="0" active="1" state="ok"/>
                <bike number="10615" bike_type="0" active="1" state="ok"/>
            </place>
            <place uid="8308" lat="51.326334508593" lng="12.357473373413" name="Galopprennbahn Eingang" spot="1"
                   number="4034" bikes="3" free_racks="0" terminal_type="free" bike_numbers="10070,05533,10139"
                   bike_types="{&quot;5&quot;:3}" place_type="0">
                <bike number="10070" bike_type="0" active="1" state="ok"/>
                <bike number="05533" bike_type="0" active="1" state="ok"/>
                <bike number="10139" bike_type="0" active="1" state="ok"/>
            </place>
            <place uid="8371" lat="51.344515" lng="12.370848" name="Goerdelerring (LVB Mobilitätsstation 5) " spot="1"
                   number="4015" bikes="0" free_racks="0" terminal_type="free" place_type="0"/>
            <place uid="8407" lat="51.348004313463" lng="12.37136721611" name="Zoo / Brücke" spot="1" number="4035"
                   bikes="0" free_racks="0" terminal_type="free" place_type="0"/>
            <place uid="8408" lat="51.340712927583" lng="12.378051280975" name="Nikolaikirche / Alte Nikolaischule"
                   spot="1" number="4009" bikes="5" free_racks="0" terminal_type="free"
                   bike_numbers="10588,05576,05773,02053,10219" bike_types="{&quot;4&quot;:3,&quot;5&quot;:2}"
                   place_type="0">
                <bike number="10588" bike_type="0" active="1" state="ok"/>
                <bike number="05576" bike_type="0" active="1" state="ok"/>
                <bike number="05773" bike_type="0" active="1" state="ok"/>
                <bike number="02053" bike_type="0" active="1" state="ok"/>
                <bike number="10219" bike_type="0" active="1" state="ok"/>
            </place>
            <place uid="8678" lat="51.341316119323" lng="12.365198135376" name="Gottschedstr. / Thomasiusstr." spot="1"
                   number="4018" bikes="5" free_racks="0" terminal_type="free"
                   bike_numbers="07033,05731,05793,10834,99920"
                   bike_types="{&quot;4&quot;:3,&quot;5&quot;:1,&quot;15&quot;:5}" place_type="0">
                <bike number="07033" bike_type="0" active="1" state="ok"/>
                <bike number="05731" bike_type="0" active="1" state="ok"/>
                <bike number="05793" bike_type="0" active="1" state="ok"/>
                <bike number="10834" bike_type="0" active="1" state="ok"/>
                <bike number="99920" bike_type="0" active="1" state="ok"/>
            </place>
            <place uid="9520" lat="51.3289859734" lng="12.346637248993" name="Könneritzstr. / Anton-Bruckner-Allee"
                   spot="1" number="4010" bikes="5" free_racks="0" maintenance="1" terminal_type="free"
                   bike_numbers="10498,10149,10325,20574,10310" bike_types="{&quot;4&quot;:2,&quot;5&quot;:3}"
                   place_type="0">
                <bike number="10498" bike_type="0" active="1" state="ok"/>
                <bike number="10149" bike_type="0" active="1" state="ok"/>
                <bike number="10325" bike_type="0" active="1" state="ok"/>
                <bike number="20574" bike_type="0" active="1" state="ok"/>
                <bike number="10310" bike_type="0" active="1" state="ok"/>
            </place>
            <place uid="9889" lat="51.336611013233" lng="12.374773621559"
                   name="Markgrafenstr. / LVB Servicecenter (LVB Mobilitätsstation 1) " spot="1" number="4047" bikes="1"
                   free_racks="0" terminal_type="free" bike_numbers="06087" place_type="0"/>
            <place uid="10054" lat="51.339664025266" lng="12.370948791504" name="Dittrichring / Gottschedstr." spot="1"
                   number="4040" bikes="1" free_racks="0" terminal_type="free" bike_numbers="10393"
                   bike_types="{&quot;14&quot;:1}" place_type="0">
                <bike number="10393" bike_type="0" active="1" state="ok"/>
            </place>
            <place uid="10780" lat="51.33287406425" lng="12.373260855675" name="Münzgasse / Peterssteinweg / Mensa"
                   spot="1" number="4023" bikes="1" free_racks="0" terminal_type="free" bike_numbers="13570"
                   bike_types="{&quot;15&quot;:1}" place_type="0">
                <bike number="13570" bike_type="15" active="1" state="ok" electric_lock="1" boardcomputer="13256"/>
            </place>
            <place uid="10882" lat="51.326143436307" lng="12.340414524078" name="Industriestr. / Karlbrücke" spot="1"
                   number="4008" bikes="1" free_racks="0" terminal_type="free" bike_numbers="10208"
                   bike_types="{&quot;4&quot;:1}" place_type="0">
                <bike number="10208" bike_type="0" active="1" state="ok"/>
            </place>
            <place uid="11373" lat="51.338842982743" lng="12.363170385361" name="Westplatz " spot="1" number="4029"
                   bikes="3" free_racks="0" terminal_type="free" bike_numbers="10570,05662,05799"
                   bike_types="{&quot;4&quot;:1,&quot;5&quot;:2}" place_type="0">
                <bike number="10570" bike_type="0" active="1" state="ok"/>
                <bike number="05662" bike_type="0" active="1" state="ok"/>
                <bike number="05799" bike_type="0" active="1" state="ok"/>
            </place>
            <place uid="15091" lat="51.327692104543" lng="12.388458251953" name="Philipp-Rosenthal-Str. / Johannisallee"
                   spot="1" number="4048" bikes="2" free_racks="0" terminal_type="free" bike_numbers="05607,05878"
                   bike_types="{&quot;5&quot;:2}" place_type="0">
                <bike number="05607" bike_type="0" active="1" state="ok"/>
                <bike number="05878" bike_type="0" active="1" state="ok"/>
            </place>
            <place uid="16337" lat="51.343658438648" lng="12.378786206245" name="Hauptbahnhof / Mobilitätszentrale LVB"
                   spot="1" number="4024" bikes="1" free_racks="0" terminal_type="free" bike_numbers="05621"
                   bike_types="{&quot;5&quot;:1}" place_type="0">
                <bike number="05621" bike_type="0" active="1" state="ok"/>
            </place>
            <place uid="19780" lat="51.332414884483" lng="12.395158410072" name="Ostplatz (LVB Mobilitätsstation 11) "
                   spot="1" number="4033" bikes="1" free_racks="0" terminal_type="free" bike_numbers="20440"
                   bike_types="{&quot;15&quot;:1}" place_type="0">
                <bike number="20440" bike_type="15" active="1" state="ok" electric_lock="1" boardcomputer="11335"/>
            </place>
            <place uid="26721" lat="51.346134666098" lng="12.375433444977" name="WestIn Hotel / Taxistand" spot="1"
                   number="4017" bikes="1" free_racks="0" terminal_type="free" bike_numbers="05661"
                   bike_types="{&quot;5&quot;:1}" place_type="7">
                <bike number="05661" bike_type="0" active="1" state="ok"/>
            </place>
            <place uid="26928" lat="51.31945" lng="12.341541"
                   name="Könneritzstr. / Oeserstr. (LVB Mobilitätsstation 39) " spot="1" number="4026" bikes="3"
                   free_racks="0" terminal_type="free" bike_numbers="07087,10230,05691" bike_types="{&quot;5&quot;:3}"
                   place_type="0">
                <bike number="07087" bike_type="0" active="1" state="ok"/>
                <bike number="10230" bike_type="0" active="1" state="ok"/>
                <bike number="05691" bike_type="0" active="1" state="ok"/>
            </place>
            <place uid="32021" lat="51.343812578497" lng="12.38149523735" name="Hauptbahnhof / Osthalle" spot="1"
                   number="4042" bikes="5" free_racks="0" terminal_type="free"
                   bike_numbers="05528,10356,05575,07085,10559" bike_types="{&quot;5&quot;:4,&quot;4&quot;:1}"
                   place_type="0">
                <bike number="05528" bike_type="0" active="1" state="ok"/>
                <bike number="10356" bike_type="0" active="1" state="ok"/>
                <bike number="05575" bike_type="0" active="1" state="ok"/>
                <bike number="07085" bike_type="0" active="1" state="ok"/>
                <bike number="10559" bike_type="0" active="1" state="ok"/>
            </place>
            <place uid="32097" lat="51.344576568357" lng="12.379628419876" name="Hauptbahnhof / Westhalle" spot="1"
                   number="4046" bikes="2" free_racks="0" terminal_type="free" bike_numbers="05693,20456"
                   bike_types="{&quot;5&quot;:1,&quot;15&quot;:1}" place_type="0">
                <bike number="05693" bike_type="0" active="1" state="ok"/>
                <bike number="20456" bike_type="15" active="1" state="ok" electric_lock="1" boardcomputer="12907"/>
            </place>
            <place uid="32663" lat="51.345638761166" lng="12.379167079926"
                   name="Hauptbahnhof / Westseite (LVB Mobilitätsstation 4)" spot="1" number="4055" bikes="5"
                   free_racks="0" terminal_type="free" bike_numbers="10410,10116,10189,31145,05890"
                   bike_types="{&quot;5&quot;:5}" place_type="0">
                <bike number="10410" bike_type="0" active="1" state="ok"/>
                <bike number="10116" bike_type="0" active="1" state="ok"/>
                <bike number="10189" bike_type="0" active="1" state="ok"/>
                <bike number="31145" bike_type="0" active="1" state="ok"/>
                <bike number="05890" bike_type="0" active="1" state="ok"/>
            </place>
            <place uid="32710" lat="51.343970068677" lng="12.383174300194" name="Hauptbahnhof / Ostseite" spot="1"
                   number="4067" bikes="2" free_racks="0" terminal_type="free" bike_numbers="31519,10650"
                   bike_types="{&quot;5&quot;:1,&quot;4&quot;:1}" place_type="0">
                <bike number="31519" bike_type="0" active="1" state="ok"/>
                <bike number="10650" bike_type="0" active="1" state="ok"/>
            </place>
            <place uid="40712" lat="51.356132036956" lng="12.364232540131" name="Poetenweg / Gohliser Schlösschen "
                   spot="1" number="4054" bikes="2" free_racks="0" terminal_type="free" bike_numbers="10659,20452"
                   bike_types="{&quot;4&quot;:1,&quot;15&quot;:1}" place_type="0">
                <bike number="10659" bike_type="0" active="1" state="ok"/>
                <bike number="20452" bike_type="15" active="1" state="ok" electric_lock="1" boardcomputer="5758"/>
            </place>
            <place uid="41466" lat="51.340438137603" lng="12.366764545441" name="Käthe-Kollwitz-Str. / Thomasiusstr."
                   spot="1" number="4043" bikes="1" free_racks="0" terminal_type="free" bike_numbers="10464"
                   place_type="0"/>
            <place uid="41763" lat="51.339245127857" lng="12.395523190498" name="Gerichtsweg / Dresdner Str. / Uhr"
                   spot="1" number="4044" bikes="3" free_racks="0" terminal_type="free" bike_numbers="31537,10754,10121"
                   bike_types="{&quot;5&quot;:1,&quot;4&quot;:2}" place_type="0">
                <bike number="31537" bike_type="0" active="1" state="ok"/>
                <bike number="10754" bike_type="0" active="1" state="ok"/>
                <bike number="10121" bike_type="0" active="1" state="ok"/>
            </place>
            <place uid="42446" lat="51.331610470888" lng="12.334336638451" name="Schaubühne Lindenfels " spot="1"
                   number="4041" bikes="1" free_racks="0" terminal_type="free" bike_numbers="10605"
                   bike_types="{&quot;4&quot;:1}" place_type="0">
                <bike number="10605" bike_type="0" active="1" state="ok"/>
            </place>
            <place uid="43753" lat="51.337696849812" lng="12.339931726456"
                   name="Straßenbhf. Angerbrücke (LVB Mobilitätsstation 14) " spot="1" number="4001" bikes="3"
                   free_racks="0" terminal_type="free" bike_numbers="10348,05598,10185" bike_types="{&quot;5&quot;:3}"
                   place_type="0">
                <bike number="10348" bike_type="0" active="1" state="ok"/>
                <bike number="05598" bike_type="0" active="1" state="ok"/>
                <bike number="10185" bike_type="0" active="1" state="ok"/>
            </place>
            <place uid="52804" lat="51.33994217103" lng="12.37419962883" name="Marktplatz / Breuninger" spot="1"
                   number="4045" bikes="5" free_racks="0" terminal_type="free"
                   bike_numbers="10022,05518,05514,10354,05635" bike_types="{&quot;5&quot;:5,&quot;15&quot;:1}"
                   place_type="0">
                <bike number="10022" bike_type="0" active="1" state="ok"/>
                <bike number="05518" bike_type="0" active="1" state="ok"/>
                <bike number="05514" bike_type="0" active="1" state="ok"/>
                <bike number="10354" bike_type="0" active="1" state="ok"/>
                <bike number="05635" bike_type="0" active="1" state="ok"/>
            </place>
            <place uid="52806" lat="51.339422740826" lng="12.379826903343" name="Augustusplatz / Vapiano" spot="1"
                   number="4032" bikes="4" free_racks="0" terminal_type="free" bike_numbers="10745,10299,10485,10335"
                   bike_types="{&quot;4&quot;:2,&quot;5&quot;:1,&quot;undefined&quot;:1}" place_type="0">
                <bike number="10745" bike_type="0" active="1" state="ok"/>
                <bike number="10299" bike_type="0" active="1" state="ok"/>
                <bike number="10485" bike_type="0" active="1" state="ok"/>
                <bike number="10335" bike_type="0" active="1" state="ok"/>
            </place>
            <place uid="66512" lat="51.342281209596" lng="12.375224232674" name="Katharinenstr. / Tourist-Information"
                   spot="1" number="4053" bikes="5" free_racks="0" terminal_type="free"
                   bike_numbers="10837,10175,05865,05867,10629" bike_types="{&quot;4&quot;:2,&quot;5&quot;:5}"
                   place_type="0">
                <bike number="10837" bike_type="0" active="1" state="ok"/>
                <bike number="10175" bike_type="0" active="1" state="ok"/>
                <bike number="05865" bike_type="0" active="1" state="ok"/>
                <bike number="05867" bike_type="0" active="1" state="ok"/>
                <bike number="10629" bike_type="0" active="1" state="ok"/>
            </place>
            <place uid="70158" lat="51.402083818804" lng="12.389788627624" name="NH Hotel Leipzig-Messe" spot="1"
                   number="4049" bikes="2" free_racks="0" terminal_type="free" bike_numbers="03339,20555"
                   bike_types="{&quot;4&quot;:1,&quot;5&quot;:1}" place_type="7">
                <bike number="03339" bike_type="0" active="1" state="ok"/>
                <bike number="20555" bike_type="0" active="1" state="ok"/>
            </place>
            <place uid="72048" lat="51.339848338913" lng="12.376720905304" name="Reichsstr. / Grimmaische Str." spot="1"
                   number="4050" bikes="5" free_racks="0" terminal_type="free"
                   bike_numbers="05526,10376,05780,05766,13772"
                   bike_types="{&quot;5&quot;:2,&quot;4&quot;:2,&quot;15&quot;:1}" place_type="0">
                <bike number="05526" bike_type="0" active="1" state="ok"/>
                <bike number="10376" bike_type="0" active="1" state="ok"/>
                <bike number="05780" bike_type="0" active="1" state="ok"/>
                <bike number="05766" bike_type="0" active="1" state="ok"/>
                <bike number="13772" bike_type="15" active="1" state="ok" electric_lock="1" boardcomputer="20239"/>
            </place>
            <place uid="104022" lat="51.335954136644" lng="12.375251054764"
                   name="Wilhelm-Leuschner-Platz / S-Bahnausgang Nord (Rückseite)" spot="1" number="4063" bikes="1"
                   free_racks="0" terminal_type="free" bike_numbers="20505" bike_types="{&quot;5&quot;:1}"
                   place_type="0">
                <bike number="20505" bike_type="0" active="1" state="ok"/>
            </place>
            <place uid="122685" lat="51.340790002526" lng="12.376468777657" name="Hotel Steigenberger / Salzgässchen"
                   spot="1" number="4031" bikes="3" free_racks="0" terminal_type="free" bike_numbers="05640,05600,10463"
                   bike_types="{&quot;5&quot;:3}" place_type="0">
                <bike number="05640" bike_type="0" active="1" state="ok"/>
                <bike number="05600" bike_type="0" active="1" state="ok"/>
                <bike number="10463" bike_type="0" active="1" state="ok"/>
            </place>
            <place uid="126405" lat="51.31187110346" lng="12.368942499161" name="Hotel Leonardo" spot="1" number="4030"
                   bikes="3" free_racks="0" terminal_type="free" bike_numbers="05707,10426,10197"
                   bike_types="{&quot;5&quot;:3}" place_type="0">
                <bike number="05707" bike_type="0" active="1" state="ok"/>
                <bike number="10426" bike_type="0" active="1" state="ok"/>
                <bike number="10197" bike_type="0" active="1" state="ok"/>
            </place>
            <place uid="142940" lat="51.345122746283" lng="12.357349991798" name="Waldstr. / Arena City Hotel" spot="1"
                   number="4065" bikes="4" free_racks="0" terminal_type="free" bike_numbers="31499,20517,10510,10141"
                   bike_types="{&quot;5&quot;:3,&quot;4&quot;:1}" place_type="0">
                <bike number="31499" bike_type="0" active="1" state="ok"/>
                <bike number="20517" bike_type="0" active="1" state="ok"/>
                <bike number="10510" bike_type="0" active="1" state="ok"/>
                <bike number="10141" bike_type="0" active="1" state="ok"/>
            </place>
            <place uid="190246" lat="51.343078734139" lng="12.376565337181" name="Am Hallischen Tor / Brühl" spot="1"
                   number="4028" bikes="1" free_racks="0" terminal_type="free" bike_numbers="10829"
                   bike_types="{&quot;5&quot;:1}" place_type="0">
                <bike number="10829" bike_type="0" active="1" state="ok"/>
            </place>
            <place uid="196461" lat="51.343192665084" lng="12.372681498528"
                   name="Richard-Wagner-Platz / Große Fleischergasse" spot="1" number="4022" bikes="2" free_racks="0"
                   terminal_type="free" bike_numbers="10782,31122" bike_types="{&quot;4&quot;:1,&quot;5&quot;:1}"
                   place_type="0">
                <bike number="10782" bike_type="0" active="1" state="ok"/>
                <bike number="31122" bike_type="0" active="1" state="ok"/>
            </place>
            <place uid="251219" lat="51.339963" lng="12.382677"
                   name="Hauptsitz LVB / Georgiring (LVB Mobilitätsstation 2) " spot="1" number="4036" bikes="1"
                   free_racks="0" terminal_type="free" bike_numbers="20439" bike_types="{&quot;15&quot;:1}"
                   place_type="0">
                <bike number="20439" bike_type="15" active="1" state="ok" electric_lock="1" boardcomputer="11340"/>
            </place>
            <place uid="266933" lat="51.341014524445" lng="12.374382019043"
                   name="Marktplatz / S-Bahn-Rolltreppe / Hainstr." spot="1" number="4012" bikes="2" free_racks="0"
                   terminal_type="free" bike_numbers="05531,10475"
                   bike_types="{&quot;5&quot;:1,&quot;undefined&quot;:1}" place_type="0">
                <bike number="05531" bike_type="0" active="1" state="ok"/>
                <bike number="10475" bike_type="0" active="1" state="ok"/>
            </place>
            <place uid="377116" lat="51.337227664322" lng="12.378115653992"
                   name="Schillerstr. / Universitätsstr. / Mensa" spot="1" number="4068" bikes="1" free_racks="0"
                   terminal_type="free" bike_numbers="05700" bike_types="{&quot;5&quot;:1}" place_type="0">
                <bike number="05700" bike_type="0" active="1" state="ok"/>
            </place>
            <place uid="411699" lat="51.337415" lng="12.333697" name="Lindenauer Markt (LVB Mobilitätsstation 21) "
                   spot="1" number="4038" bikes="0" free_racks="0" terminal_type="free" place_type="0"/>
            <place uid="415491" lat="51.337733" lng="12.381646" name="Augustusplatz (LVB Mobilitätsstation 3) " spot="1"
                   number="4071" bikes="1" free_racks="0" terminal_type="free" bike_numbers="05559"
                   bike_types="{&quot;5&quot;:1}" place_type="0">
                <bike number="05559" bike_type="0" active="1" state="ok"/>
            </place>
            <place uid="415518" lat="51.33038" lng="12.379928" name="Riemannstr. (LVB Mobilitätsstation 7) " spot="1"
                   number="4073" bikes="1" free_racks="0" terminal_type="free" bike_numbers="05738"
                   bike_types="{&quot;4&quot;:1}" place_type="0">
                <bike number="05738" bike_type="0" active="1" state="ok"/>
            </place>
            <place uid="415534" lat="51.341708" lng="12.357817"
                   name="Willmar-Schwabe-Str. / Jahnallee (LVB Mobilitätsstation 9) " spot="1" number="4074" bikes="1"
                   free_racks="0" terminal_type="free" bike_numbers="05856" bike_types="{&quot;5&quot;:1}"
                   place_type="0">
                <bike number="05856" bike_type="0" active="1" state="ok"/>
            </place>
            <place uid="415556" lat="51.357471" lng="12.377097"
                   name="Delitzscher Str. / G.-Schumann-Str. (LVB Mobilitätsstation 12) " spot="1" number="4075"
                   bikes="3" free_racks="0" terminal_type="free" bike_numbers="10286,05564,10790"
                   bike_types="{&quot;5&quot;:3}" place_type="0">
                <bike number="10286" bike_type="0" active="1" state="ok"/>
                <bike number="05564" bike_type="0" active="1" state="ok"/>
                <bike number="10790" bike_type="0" active="1" state="ok"/>
            </place>
            <place uid="415559" lat="51.363" lng="12.373595" name="S-Bhf. Gohlis (LVB Mobilitätsstation 13) " spot="1"
                   number="4076" bikes="3" free_racks="0" terminal_type="free" bike_numbers="10214,05642,10883"
                   bike_types="{&quot;4&quot;:1,&quot;5&quot;:1,&quot;undefined&quot;:1}" place_type="0">
                <bike number="10214" bike_type="0" active="1" state="ok"/>
                <bike number="05642" bike_type="0" active="1" state="ok"/>
                <bike number="10883" bike_type="0" active="1" state="ok"/>
            </place>
            <place uid="415568" lat="51.311662" lng="12.372993"
                   name="Scheffelstr. / Karl-Liebknecht-Str. (LVB Mobilitätsstation 16) " spot="1" number="4077"
                   bikes="5" free_racks="0" terminal_type="free" bike_numbers="10556,05637,31516,10362,10046"
                   bike_types="{&quot;4&quot;:1,&quot;5&quot;:3,&quot;undefined&quot;:1}" place_type="0">
                <bike number="10556" bike_type="0" active="1" state="ok"/>
                <bike number="05637" bike_type="0" active="1" state="ok"/>
                <bike number="31516" bike_type="0" active="1" state="ok"/>
                <bike number="10362" bike_type="0" active="1" state="ok"/>
                <bike number="10046" bike_type="0" active="1" state="ok"/>
            </place>
            <place uid="415578" lat="51.324111" lng="12.400456" name="Karl-Siegismund-Str. (LVB Mobilitätsstation 17)"
                   spot="1" number="4079" bikes="0" free_racks="0" terminal_type="free" place_type="0"/>
            <place uid="415587" lat="51.3515" lng="12.40706" name="Stannebeinplatz (LVB Mobilitätsstation 18) " spot="1"
                   number="4081" bikes="0" free_racks="0" terminal_type="free" place_type="0"/>
            <place uid="415600" lat="51.366441" lng="12.349743"
                   name="Huygensstr. / Georg-Schumann-Str. (LVB Mobilitätsstation 20)" spot="1" number="4085" bikes="2"
                   free_racks="0" terminal_type="free" bike_numbers="20571,10231"
                   bike_types="{&quot;4&quot;:1,&quot;5&quot;:1}" place_type="0">
                <bike number="20571" bike_type="0" active="1" state="ok"/>
                <bike number="10231" bike_type="0" active="1" state="ok"/>
            </place>
            <place uid="415612" lat="51.301198" lng="12.384442"
                   name="Bornaische Str. / Klemmstr. (LVB Mobilitätsstation 22) " spot="1" number="4052" bikes="1"
                   free_racks="0" terminal_type="free" bike_numbers="10879" bike_types="{&quot;4&quot;:1}"
                   place_type="0">
                <bike number="10879" bike_type="0" active="1" state="ok"/>
            </place>
            <place uid="415617" lat="51.37549" lng="12.378652" name="Virchowstr. (LVB Mobilitätsstation 23) " spot="1"
                   number="4060" bikes="1" free_racks="0" terminal_type="free" bike_numbers="05775"
                   bike_types="{&quot;4&quot;:1}" place_type="0">
                <bike number="05775" bike_type="0" active="1" state="ok"/>
            </place>
            <place uid="415622" lat="51.347631" lng="12.313274" name="Rathaus Leutzsch (LVB Mobilitätsstation 24) "
                   spot="1" number="4062" bikes="0" free_racks="0" terminal_type="free" place_type="0"/>
            <place uid="415630" lat="51.322889" lng="12.28723"
                   name="Schönauer Str. / Lützner Str. (LVB Mobilitätsstation 25)  " spot="1" number="4066" bikes="1"
                   free_racks="0" terminal_type="free" bike_numbers="05755" bike_types="{&quot;4&quot;:1}"
                   place_type="0">
                <bike number="05755" bike_type="0" active="1" state="ok"/>
            </place>
            <place uid="426322" lat="51.368511815409" lng="12.38609790802"
                   name="Eutritzscher Markt (LVB Mobilitätsstation 19) " spot="1" number="4083" bikes="2" free_racks="0"
                   terminal_type="free" bike_numbers="10832,31514" bike_types="{&quot;4&quot;:1,&quot;5&quot;:1}"
                   place_type="0">
                <bike number="10832" bike_type="0" active="1" state="ok"/>
                <bike number="31514" bike_type="0" active="1" state="ok"/>
            </place>
            <place uid="439266" lat="51.307961110927" lng="12.437092065811" name="Herzzentrum / Helios Park-Klinikum"
                   spot="1" number="4020" bikes="5" free_racks="0" terminal_type="free"
                   bike_numbers="10875,10872,10429,10732,10239"
                   bike_types="{&quot;4&quot;:2,&quot;5&quot;:2,&quot;undefined&quot;:1,&quot;15&quot;:2}"
                   place_type="0">
                <bike number="10875" bike_type="0" active="1" state="ok"/>
                <bike number="10872" bike_type="0" active="1" state="ok"/>
                <bike number="10429" bike_type="0" active="1" state="ok"/>
                <bike number="10732" bike_type="0" active="1" state="ok"/>
                <bike number="10239" bike_type="0" active="1" state="ok"/>
            </place>
            <place uid="676203" lat="51.343380315434" lng="12.321011424065" name="Ev. Diakonissenkrankenhaus Leipzig"
                   spot="1" number="4086" bikes="3" free_racks="0" bike_numbers="05524,05590,20431"
                   bike_types="{&quot;5&quot;:1,&quot;4&quot;:1,&quot;15&quot;:1}" place_type="0">
                <bike number="05524" bike_type="0" active="1" state="ok"/>
                <bike number="05590" bike_type="0" active="1" state="ok"/>
                <bike number="20431" bike_type="15" active="1" state="ok" electric_lock="1" boardcomputer="11502"/>
            </place>
            <place uid="683555" lat="51.334955398081" lng="12.388383150101" name="Hotel Mercure / Stephanstr." spot="1"
                   number="4004" bikes="1" free_racks="0" terminal_type="free" bike_numbers="10441"
                   bike_types="{&quot;5&quot;:1}" place_type="0">
                <bike number="10441" bike_type="0" active="1" state="ok"/>
            </place>
            <place uid="683557" lat="51.342167276386" lng="12.359104156494" name="Waldplatz / Brunnen" spot="1"
                   number="4016" bikes="1" free_racks="0" bike_numbers="31440" place_type="0"/>
            <place uid="683562" lat="51.332113231039" lng="12.341465950012" name="Karl-Heine-Str. / Erich-Zeigner-Allee"
                   spot="1" number="4037" bikes="1" free_racks="0" bike_numbers="10882" bike_types="{&quot;4&quot;:1}"
                   place_type="0">
                <bike number="10882" bike_type="0" active="1" state="ok"/>
            </place>
            <place uid="683564" lat="51.339617108946" lng="12.378045916557" name="Lehmanns Buchhandlung" spot="1"
                   number="4070" bikes="4" free_racks="0" bike_numbers="02268,10309,20438,20436"
                   bike_types="{&quot;4&quot;:1,&quot;5&quot;:1,&quot;15&quot;:2}" place_type="0">
                <bike number="02268" bike_type="0" active="1" state="ok"/>
                <bike number="10309" bike_type="0" active="1" state="ok"/>
                <bike number="20438" bike_type="15" active="1" state="ok" electric_lock="1" boardcomputer="11491"/>
                <bike number="20436" bike_type="15" active="1" state="ok" electric_lock="1" boardcomputer="10528"/>
            </place>
            <place uid="1016537" lat="51.327252" lng="12.32248" name="S-Bhf. Plagwitz " spot="1" number="4087" bikes="0"
                   free_racks="0" terminal_type="free" place_type="0"/>
            <place uid="1047912" lat="51.331342329886" lng="12.358438968658" name="Musikpavillon" spot="1" number="4027"
                   bikes="4" free_racks="0" bike_numbers="05548,05711,05785,10276"
                   bike_types="{&quot;5&quot;:2,&quot;4&quot;:1,&quot;29&quot;:1}" place_type="0">
                <bike number="05548" bike_type="0" active="1" state="ok"/>
                <bike number="05711" bike_type="0" active="1" state="ok"/>
                <bike number="05785" bike_type="0" active="1" state="ok"/>
                <bike number="10276" bike_type="0" active="1" state="ok"/>
            </place>
            <place uid="1120472" lat="51.315069940448" lng="12.372987270355"
                   name="Karl-Liebknecht-Str. / Richard-Lehmann-Str." spot="1" number="4002" bikes="4" free_racks="0"
                   terminal_type="free" bike_numbers="10836,10544,07072,10825"
                   bike_types="{&quot;4&quot;:2,&quot;5&quot;:2}" place_type="0">
                <bike number="10836" bike_type="0" active="1" state="ok"/>
                <bike number="10544" bike_type="0" active="1" state="ok"/>
                <bike number="07072" bike_type="0" active="1" state="ok"/>
                <bike number="10825" bike_type="0" active="1" state="ok"/>
            </place>
            <place uid="1120513" lat="51.340116430167" lng="12.351508140564" name="Jahnallee / Festwiese" spot="1"
                   number="4056" bikes="0" free_racks="0" terminal_type="free" place_type="0"/>
            <place uid="1167216" lat="51.320595288593" lng="12.385990619659" name="S-Bhf. MDR" spot="1" number="4082"
                   bikes="2" free_racks="0" terminal_type="free" bike_numbers="03224,10593"
                   bike_types="{&quot;4&quot;:2}" place_type="0">
                <bike number="03224" bike_type="0" active="1" state="ok"/>
                <bike number="10593" bike_type="0" active="1" state="ok"/>
            </place>
            <place uid="1200717" lat="51.351415050663" lng="12.432006597519" name="UFZ Leipzig / Permoserstr." spot="1"
                   number="4088" bikes="2" free_racks="0" terminal_type="free" bike_numbers="05547,10447"
                   bike_types="{&quot;5&quot;:2}" place_type="0">
                <bike number="05547" bike_type="0" active="1" state="ok"/>
                <bike number="10447" bike_type="0" active="1" state="ok"/>
            </place>
            <place uid="1218734" lat="51.332348" lng="12.373923" name="Münzgasse / LVZ (LVB Mobilitätsstation 26)"
                   spot="1" number="4069" bikes="4" free_racks="0" terminal_type="free"
                   bike_numbers="05611,20551,05676,10585" bike_types="{&quot;4&quot;:2,&quot;5&quot;:2}" place_type="0">
                <bike number="05611" bike_type="0" active="1" state="ok"/>
                <bike number="20551" bike_type="0" active="1" state="ok"/>
                <bike number="05676" bike_type="0" active="1" state="ok"/>
                <bike number="10585" bike_type="0" active="1" state="ok"/>
            </place>
            <place uid="1407891" lat="51.351662972546" lng="12.373234033585" name="Nordplatz (LVB Mobilitätsstation 8)"
                   spot="1" number="4103" bikes="4" free_racks="0" bike_numbers="05634,10011,10632,20451"
                   bike_types="{&quot;5&quot;:2,&quot;4&quot;:1,&quot;15&quot;:1}" place_type="0">
                <bike number="05634" bike_type="0" active="1" state="ok"/>
                <bike number="10011" bike_type="0" active="1" state="ok"/>
                <bike number="10632" bike_type="0" active="1" state="ok"/>
                <bike number="20451" bike_type="15" active="1" state="ok" electric_lock="1" boardcomputer="5610"/>
            </place>
            <place uid="1532219" lat="51.340049407501" lng="12.36987054348" name="Gottschedstr. / Zentralstr." spot="1"
                   number="4104" bikes="3" free_racks="0" bike_numbers="10742,10368,05892"
                   bike_types="{&quot;4&quot;:1,&quot;5&quot;:2}" place_type="0">
                <bike number="10742" bike_type="0" active="1" state="ok"/>
                <bike number="10368" bike_type="0" active="1" state="ok"/>
                <bike number="05892" bike_type="0" active="1" state="ok"/>
            </place>
            <place uid="1547734" lat="51.331778058217" lng="12.382192611694" name="Liebigstr. 16 / Uni-Klinikum"
                   spot="1" number="4109" bikes="0" free_racks="0" terminal_type="free" place_type="0"/>
            <place uid="2261448" lat="51.330293213148" lng="12.329878807068"
                   name="Leipzig International School (König-Albert-Brücke)" spot="1" number="4039" bikes="2"
                   free_racks="0" terminal_type="free" bike_numbers="10418,20506" bike_types="{&quot;5&quot;:2}"
                   place_type="0">
                <bike number="10418" bike_type="0" active="1" state="ok"/>
                <bike number="20506" bike_type="0" active="1" state="ok"/>
            </place>
            <place uid="2261478" lat="51.324470681778" lng="12.344292998314"
                   name="Leipzig International School (Eingang Könneritzstr. 47) " spot="1" number="4080" bikes="5"
                   free_racks="0" terminal_type="free" bike_numbers="10045,05553,10374,10247,05695"
                   bike_types="{&quot;5&quot;:5,&quot;4&quot;:1,&quot;15&quot;:1}" place_type="0">
                <bike number="10045" bike_type="0" active="1" state="ok"/>
                <bike number="05553" bike_type="0" active="1" state="ok"/>
                <bike number="10374" bike_type="0" active="1" state="ok"/>
                <bike number="10247" bike_type="0" active="1" state="ok"/>
                <bike number="05695" bike_type="0" active="1" state="ok"/>
            </place>
            <place uid="2261490" lat="51.325268516198" lng="12.34438419342"
                   name="Leipzig International School (Könneritzstr. / Alfred-Frank-Str.)" spot="1" number="4089"
                   bikes="5" free_racks="0" terminal_type="free" bike_numbers="10827,10306,10268,05740,10206"
                   bike_types="{&quot;4&quot;:3,&quot;5&quot;:2}" place_type="0">
                <bike number="10827" bike_type="0" active="1" state="ok"/>
                <bike number="10306" bike_type="0" active="1" state="ok"/>
                <bike number="10268" bike_type="0" active="1" state="ok"/>
                <bike number="05740" bike_type="0" active="1" state="ok"/>
                <bike number="10206" bike_type="0" active="1" state="ok"/>
            </place>
            <place uid="2679897" lat="51.345427664871" lng="12.392079234123" name="Friedrich-List-Platz" spot="1"
                   number="4061" bikes="4" free_racks="0" terminal_type="free" bike_numbers="10318,31544,10243,05667"
                   bike_types="{&quot;5&quot;:3,&quot;4&quot;:1}" place_type="0">
                <bike number="10318" bike_type="0" active="1" state="ok"/>
                <bike number="31544" bike_type="0" active="1" state="ok"/>
                <bike number="10243" bike_type="0" active="1" state="ok"/>
                <bike number="05667" bike_type="0" active="1" state="ok"/>
            </place>
            <place uid="2777225" lat="51.32482937376" lng="12.334105968475"
                   name="Zschochersche Str. / Markranstädter Str." spot="1" number="4105" bikes="2" free_racks="0"
                   terminal_type="free" bike_numbers="10746,31418" bike_types="{&quot;4&quot;:1,&quot;14&quot;:1}"
                   place_type="0">
                <bike number="10746" bike_type="0" active="1" state="ok"/>
                <bike number="31418" bike_type="0" active="1" state="ok"/>
            </place>
            <place uid="3381980" lat="51.3379146843" lng="12.3871332407" name="Johannisplatz / Grassi-Museum" spot="1"
                   number="4058" bikes="3" free_racks="0" terminal_type="free" bike_numbers="20527,20457,10870"
                   bike_types="{&quot;5&quot;:2,&quot;15&quot;:1}" place_type="0">
                <bike number="20527" bike_type="0" active="1" state="ok"/>
                <bike number="20457" bike_type="15" active="1" state="ok" electric_lock="1" boardcomputer="11468"/>
                <bike number="10870" bike_type="0" active="1" state="ok"/>
            </place>
            <place uid="3382063" lat="51.332864009268" lng="12.404331564903"
                   name="Lene-Voigt-Park / Albert-Schweitzer-Str." spot="1" number="4094" bikes="1" free_racks="0"
                   terminal_type="free" bike_numbers="05704" bike_types="{&quot;5&quot;:1}" place_type="0">
                <bike number="05704" bike_type="0" active="1" state="ok"/>
            </place>
            <place uid="3382136" lat="51.328848543467" lng="12.409556508064" name="Holsteinstr. / Kurt-Günther-Str."
                   spot="1" number="4096" bikes="1" free_racks="0" terminal_type="free" bike_numbers="05656"
                   bike_types="{&quot;5&quot;:1}" place_type="0">
                <bike number="05656" bike_type="0" active="1" state="ok"/>
            </place>
            <place uid="3382207" lat="51.345658865525" lng="12.40161716938" name="Eisenbahnstr. / Stadtteilpark Rabet"
                   spot="1" number="4059" bikes="3" free_racks="0" terminal_type="free" bike_numbers="05784,05818,03340"
                   bike_types="{&quot;4&quot;:2,&quot;5&quot;:1}" place_type="0">
                <bike number="05784" bike_type="0" active="1" state="ok"/>
                <bike number="05818" bike_type="0" active="1" state="ok"/>
                <bike number="03340" bike_type="0" active="1" state="ok"/>
            </place>
            <place uid="3382243" lat="51.337978358801" lng="12.406209111214" name="Dresdner Str. / Wurzner Str."
                   spot="1" number="4072" bikes="5" free_racks="0" terminal_type="free"
                   bike_numbers="10529,10258,10568,05743,05844" bike_types="{&quot;4&quot;:2,&quot;5&quot;:3}"
                   place_type="0">
                <bike number="10529" bike_type="0" active="1" state="ok"/>
                <bike number="10258" bike_type="0" active="1" state="ok"/>
                <bike number="10568" bike_type="0" active="1" state="ok"/>
                <bike number="05743" bike_type="0" active="1" state="ok"/>
                <bike number="05844" bike_type="0" active="1" state="ok"/>
            </place>
            <place uid="3382460" lat="51.324480738601" lng="12.412716150284" name="S-Bhf. Stötteritz" spot="1"
                   number="4092" bikes="0" free_racks="0" terminal_type="free" place_type="0"/>
            <place uid="3382620" lat="51.367751573731" lng="12.366823554039" name="Coppiplatz" spot="1" number="4093"
                   bikes="1" free_racks="0" terminal_type="free" bike_numbers="10751" bike_types="{&quot;4&quot;:1}"
                   place_type="0">
                <bike number="10751" bike_type="0" active="1" state="ok"/>
            </place>
            <place uid="3813180" lat="51.336279224704" lng="12.362810969353"
                   name="Lutherkirche / Ferdinand-Lassalle-Str. / Schreberstr." spot="1" number="4078" bikes="1"
                   free_racks="0" bike_numbers="03161" bike_types="{&quot;4&quot;:1}" place_type="0">
                <bike number="03161" bike_type="0" active="1" state="ok"/>
            </place>
            <place uid="3833425" lat="51.345384105197" lng="12.414566874504" name="Torgauer Platz" spot="1"
                   number="4025" bikes="5" free_racks="0" bike_numbers="10607,10814,05556,05643,31536"
                   bike_types="{&quot;4&quot;:3,&quot;5&quot;:4}" place_type="0">
                <bike number="10607" bike_type="0" active="1" state="ok"/>
                <bike number="10814" bike_type="0" active="1" state="ok"/>
                <bike number="05556" bike_type="0" active="1" state="ok"/>
                <bike number="05643" bike_type="0" active="1" state="ok"/>
                <bike number="31536" bike_type="0" active="1" state="ok"/>
            </place>
            <place uid="4586461" lat="51.34115532" lng="12.36571542" bike="1" name="Thomasiusstraße 11" bikes="1"
                   free_racks="0" bike_numbers="13687" bike_types="{&quot;15&quot;:1}" place_type="12">
                <bike number="13687" bike_type="15" active="1" state="ok" electric_lock="1" boardcomputer="21442"/>
            </place>
            <place uid="4591169" lat="51.33790455" lng="12.406180230562"
                   name="Dresdner Straße 84, 04317 Leipzig (Reudnitz-Thonberg)" bikes="2" free_racks="0"
                   bike_numbers="10634,31505" bike_types="{&quot;4&quot;:1,&quot;5&quot;:1}" place_type="0">
                <bike number="10634" bike_type="0" active="1" state="ok"/>
                <bike number="31505" bike_type="0" active="1" state="ok"/>
            </place>
        </city>
        <city uid="8" lat="50.1072" lng="8.66375" zoom="12" maps_icon="" alias="frankfurt" break="0" name="Frankfurt"
              num_places="39" refresh_rate="1742"
              bounds="{&quot;south_west&quot;:{&quot;lat&quot;:50.0913,&quot;lng&quot;:8.5534},&quot;north_east&quot;:{&quot;lat&quot;:50.1407,&quot;lng&quot;:8.7096}}"
              booked_bikes="0" set_point_bikes="229" available_bikes="94">
            <place uid="46" lat="50.099624222884" lng="8.6850491166115" name="4260 - Südbahnhof / Hedderichstr."
                   spot="1" number="4260" bikes="4" free_racks="0" terminal_type="free"
                   bike_numbers="06200,06147,06159,06264"
                   bike_types="{&quot;5&quot;:2,&quot;4&quot;:1,&quot;undefined&quot;:1}" place_type="0">
                <bike number="06200" bike_type="0" active="1" state="ok"/>
                <bike number="06147" bike_type="0" active="1" state="ok"/>
                <bike number="06159" bike_type="0" active="1" state="ok"/>
                <bike number="06264" bike_type="0" active="1" state="ok"/>
            </place>
            <place uid="896" lat="50.113158466165" lng="8.6787593364716" name="4245 - Hauptwache / Sport Arena" spot="1"
                   number="4245" bikes="5" free_racks="0" terminal_type="free"
                   bike_numbers="06079,06184,06142,03039,03146" bike_types="{&quot;5&quot;:4,&quot;4&quot;:1}"
                   place_type="0">
                <bike number="06079" bike_type="0" active="1" state="ok"/>
                <bike number="06184" bike_type="0" active="1" state="ok"/>
                <bike number="06142" bike_type="0" active="1" state="ok"/>
                <bike number="03039" bike_type="0" active="1" state="ok"/>
                <bike number="03146" bike_type="0" active="1" state="ok"/>
            </place>
            <place uid="1572" lat="50.114837185404" lng="8.6725741624832" name="4244 - Fressgasse / Neue Mainzer Str."
                   spot="1" number="4244" bikes="3" free_racks="0" terminal_type="free" bike_numbers="03128,06144,06135"
                   bike_types="{&quot;5&quot;:1,&quot;4&quot;:2}" place_type="0">
                <bike number="03128" bike_type="0" active="1" state="ok"/>
                <bike number="06144" bike_type="0" active="1" state="ok"/>
                <bike number="06135" bike_type="0" active="1" state="ok"/>
            </place>
            <place uid="1640" lat="50.123099203895" lng="8.6926692724228" name="4250 - Friedberger Platz / Café Harveys"
                   spot="1" number="4250" bikes="1" free_racks="0" terminal_type="free" bike_numbers="06060"
                   bike_types="{&quot;5&quot;:1}" place_type="0">
                <bike number="06060" bike_type="0" active="1" state="ok"/>
            </place>
            <place uid="2304" lat="50.110791647259" lng="8.6818331480026" name="4246 - Römer / Touristeninformation"
                   spot="1" number="4246" bikes="3" free_racks="0" terminal_type="free" bike_numbers="06232,03166,06284"
                   bike_types="{&quot;5&quot;:2,&quot;4&quot;:1}" place_type="0">
                <bike number="06232" bike_type="0" active="1" state="ok"/>
                <bike number="03166" bike_type="0" active="1" state="ok"/>
                <bike number="06284" bike_type="0" active="1" state="ok"/>
            </place>
            <place uid="2612" lat="50.115349733444" lng="8.6711740493774"
                   name="4243 - Opernplatz / Bockenheimer Landstr." spot="1" number="4243" bikes="3" free_racks="0"
                   terminal_type="free" bike_numbers="06007,06029,06032" bike_types="{&quot;5&quot;:3}" place_type="0">
                <bike number="06007" bike_type="0" active="1" state="ok"/>
                <bike number="06029" bike_type="0" active="1" state="ok"/>
                <bike number="06032" bike_type="0" active="1" state="ok"/>
            </place>
            <place uid="3364" lat="50.122769025681" lng="8.7014132738113" name="4251 - Höhenstraße / Berger Str."
                   spot="1" number="4251" bikes="0" free_racks="0" terminal_type="free" place_type="0"/>
            <place uid="7374" lat="50.120323572383" lng="8.6956572532654" name="4249 - Merianplatz / Berger Str."
                   spot="1" number="4249" bikes="0" free_racks="0" terminal_type="free" place_type="0"/>
            <place uid="7378" lat="50.120120638859" lng="8.650381565094"
                   name="4258 - Bockenheimer Warte / Café Extrablatt" spot="1" number="4258" bikes="2" free_racks="0"
                   terminal_type="free" bike_numbers="06067,06148" bike_types="{&quot;5&quot;:1,&quot;4&quot;:1}"
                   place_type="0">
                <bike number="06067" bike_type="0" active="1" state="ok"/>
                <bike number="06148" bike_type="0" active="1" state="ok"/>
            </place>
            <place uid="7634" lat="50.105376421023" lng="8.6780592799187" name="4262 - Schaumainkai / Schweizer Str."
                   spot="1" number="4262" bikes="3" free_racks="0" terminal_type="free" bike_numbers="06188,03013,06140"
                   bike_types="{&quot;5&quot;:1,&quot;4&quot;:2}" place_type="0">
                <bike number="06188" bike_type="0" active="1" state="ok"/>
                <bike number="03013" bike_type="0" active="1" state="ok"/>
                <bike number="06140" bike_type="0" active="1" state="ok"/>
            </place>
            <place uid="7644" lat="50.122731192615" lng="8.6454087495804" name="4259 - Leipziger Str. / Markgrafenstr."
                   spot="1" number="4259" bikes="3" free_racks="0" terminal_type="free" bike_numbers="06110,03012,03164"
                   bike_types="{&quot;5&quot;:1,&quot;4&quot;:2}" place_type="0">
                <bike number="06110" bike_type="0" active="1" state="ok"/>
                <bike number="03012" bike_type="0" active="1" state="ok"/>
                <bike number="03164" bike_type="0" active="1" state="ok"/>
            </place>
            <place uid="7647" lat="50.101915034473" lng="8.6811143159866" name="4261 - Schweizer Platz / Diesterwegstr."
                   spot="1" number="4261" bikes="1" free_racks="0" terminal_type="free" bike_numbers="06276"
                   place_type="0"/>
            <place uid="7648" lat="50.115556127078" lng="8.6985218524933" name="4248 - Zoo / Alfred-Brehm-Platz"
                   spot="1" number="4248" bikes="3" free_racks="0" terminal_type="free" bike_numbers="03123,06234,06182"
                   bike_types="{&quot;5&quot;:3}" place_type="0">
                <bike number="03123" bike_type="0" active="1" state="ok"/>
                <bike number="06234" bike_type="0" active="1" state="ok"/>
                <bike number="06182" bike_type="0" active="1" state="ok"/>
            </place>
            <place uid="17232" lat="50.110266149431" lng="8.5952192544937" name="4290 - Hotel Ramada Hotel Messe"
                   spot="1" number="4290" bikes="3" free_racks="0" terminal_type="free" bike_numbers="06225,06257,06162"
                   bike_types="{&quot;5&quot;:3}" place_type="7">
                <bike number="06225" bike_type="0" active="1" state="ok"/>
                <bike number="06257" bike_type="0" active="1" state="ok"/>
                <bike number="06162" bike_type="0" active="1" state="ok"/>
            </place>
            <place uid="29169" lat="50.109150630018" lng="8.674698472023"
                   name="4242 - Willy-Brandt-Platz / Neue Mainzer Str. " spot="1" number="4242" bikes="2" free_racks="0"
                   terminal_type="free" bike_numbers="03019,03015" bike_types="{&quot;4&quot;:2}" place_type="0">
                <bike number="03019" bike_type="0" active="1" state="ok"/>
                <bike number="03015" bike_type="0" active="1" state="ok"/>
            </place>
            <place uid="42801" lat="50.111947550177" lng="8.6541259288788"
                   name="4241 - Messe / Festhalle / Eingang U-Bahn" spot="1" number="4241" bikes="2" free_racks="0"
                   terminal_type="free" bike_numbers="06228,03157" bike_types="{&quot;5&quot;:1,&quot;4&quot;:1}"
                   place_type="0">
                <bike number="06228" bike_type="0" active="1" state="ok"/>
                <bike number="03157" bike_type="0" active="1" state="ok"/>
            </place>
            <place uid="52745" lat="50.114840625342" lng="8.6875087022781"
                   name="4247 - Konstabler Wache / Conrad-Elektronik" spot="1" number="4247" bikes="3" free_racks="0"
                   terminal_type="free" bike_numbers="06191,03011,02283" bike_types="{&quot;5&quot;:1,&quot;4&quot;:2}"
                   place_type="0">
                <bike number="06191" bike_type="0" active="1" state="ok"/>
                <bike number="03011" bike_type="0" active="1" state="ok"/>
                <bike number="02283" bike_type="0" active="1" state="ok"/>
            </place>
            <place uid="67722" lat="50.091312551956" lng="8.6857706308365" name="4288 - Hotel Derag" spot="1"
                   number="4288" bikes="2" free_racks="0" terminal_type="free" bike_numbers="77836,06122"
                   bike_types="{&quot;4&quot;:1,&quot;5&quot;:1}" place_type="0">
                <bike number="77836" bike_type="0" active="1" state="ok"/>
                <bike number="06122" bike_type="0" active="1" state="ok"/>
            </place>
            <place uid="121962" lat="50.10739602108" lng="8.6643612384796" name="4240 - Hauptbahnhof / Vorplatz"
                   spot="1" number="4240" bikes="2" free_racks="0" terminal_type="free" bike_numbers="06155,06119"
                   bike_types="{&quot;4&quot;:1,&quot;5&quot;:1}" place_type="0">
                <bike number="06155" bike_type="0" active="1" state="ok"/>
                <bike number="06119" bike_type="0" active="1" state="ok"/>
            </place>
            <place uid="121963" lat="50.128873515056" lng="8.6925029754639"
                   name="4252 - Nibelungenplatz / Friedberger Landstr." spot="1" number="4252" bikes="2" free_racks="0"
                   terminal_type="free" bike_numbers="06027,77835" bike_types="{&quot;5&quot;:1,&quot;4&quot;:1}"
                   place_type="0">
                <bike number="06027" bike_type="0" active="1" state="ok"/>
                <bike number="77835" bike_type="0" active="1" state="ok"/>
            </place>
            <place uid="122146" lat="50.112945182048" lng="8.6763989925385"
                   name="4238 - Roßmarkt / Junghofstr. (Goetheplatz)" spot="1" number="4238" bikes="4" free_racks="0"
                   terminal_type="free" bike_numbers="06016,06117,06128,06058"
                   bike_types="{&quot;5&quot;:3,&quot;4&quot;:1}" place_type="0">
                <bike number="06016" bike_type="0" active="1" state="ok"/>
                <bike number="06117" bike_type="0" active="1" state="ok"/>
                <bike number="06128" bike_type="0" active="1" state="ok"/>
                <bike number="06058" bike_type="0" active="1" state="ok"/>
            </place>
            <place uid="122155" lat="50.104099934817" lng="8.6648279428482"
                   name="4239 - Baseler Platz / Baseler Straße / Gutleutstr." spot="1" number="4239" bikes="2"
                   free_racks="0" terminal_type="free" bike_numbers="06237,06269"
                   bike_types="{&quot;5&quot;:1,&quot;undefined&quot;:1}" place_type="0">
                <bike number="06237" bike_type="0" active="1" state="ok"/>
                <bike number="06269" bike_type="0" active="1" state="ok"/>
            </place>
            <place uid="122156" lat="50.116852946722" lng="8.6791777610779"
                   name="4237 - Eschenheimer Turm / Schillerstr. / Taubenstr." spot="1" number="4237" bikes="2"
                   free_racks="0" terminal_type="free" bike_numbers="06271,06282"
                   bike_types="{&quot;undefined&quot;:1,&quot;4&quot;:1}" place_type="0">
                <bike number="06271" bike_type="0" active="1" state="ok"/>
                <bike number="06282" bike_type="0" active="1" state="ok"/>
            </place>
            <place uid="122689" lat="50.1141999" lng="8.6180641"
                   name="4292 - Hotel Accor / Ibis F-City Messe / Leonardo-da-Vinci-Allee 40" spot="1" number="4292"
                   bikes="2" free_racks="0" terminal_type="free" bike_numbers="06161,03031"
                   bike_types="{&quot;5&quot;:1,&quot;4&quot;:1}" place_type="0">
                <bike number="06161" bike_type="0" active="1" state="ok"/>
                <bike number="03031" bike_type="0" active="1" state="ok"/>
            </place>
            <place uid="122692" lat="50.1017481" lng="8.553437" name="4291 - Hotel Lindner Congress / Bolongarostr 100"
                   spot="1" number="4291" bikes="2" free_racks="0" terminal_type="free" bike_numbers="06063,03156"
                   bike_types="{&quot;5&quot;:1,&quot;4&quot;:1}" place_type="0">
                <bike number="06063" bike_type="0" active="1" state="ok"/>
                <bike number="03156" bike_type="0" active="1" state="ok"/>
            </place>
            <place uid="125751" lat="50.111452166629" lng="8.7095618247986"
                   name="4297 - Hotel B&amp;B Frankfurt City-Ost / Hanauer Landstr. 117" spot="1" number="4297"
                   bikes="2" free_racks="0" terminal_type="free" bike_numbers="06221,06256"
                   bike_types="{&quot;5&quot;:2}" place_type="0">
                <bike number="06221" bike_type="0" active="1" state="ok"/>
                <bike number="06256" bike_type="0" active="1" state="ok"/>
            </place>
            <place uid="151886" lat="50.107175830321" lng="8.6726224422455"
                   name="4294 - Hotel Adina Apartment Frankfurt / Neue Oper / Wilhelm-Leuschner-Str 6" spot="1"
                   number="4294" bikes="4" free_racks="0" terminal_type="free" bike_numbers="06098,06132,02323,03162"
                   bike_types="{&quot;5&quot;:1,&quot;4&quot;:3}" place_type="0">
                <bike number="06098" bike_type="0" active="1" state="ok"/>
                <bike number="06132" bike_type="0" active="1" state="ok"/>
                <bike number="02323" bike_type="0" active="1" state="ok"/>
                <bike number="03162" bike_type="0" active="1" state="ok"/>
            </place>
            <place uid="212843" lat="50.108579529067" lng="8.6695110797882"
                   name="4286 - Hotel Ramada City / Weserstr. / Kaiserstr." spot="1" number="4286" bikes="3"
                   free_racks="0" terminal_type="free" bike_numbers="06231,06166,06266"
                   bike_types="{&quot;5&quot;:2,&quot;undefined&quot;:1}" place_type="0">
                <bike number="06231" bike_type="0" active="1" state="ok"/>
                <bike number="06166" bike_type="0" active="1" state="ok"/>
                <bike number="06266" bike_type="0" active="1" state="ok"/>
            </place>
            <place uid="222069" lat="50.112597733307" lng="8.6528170108795" name="4236 - Messe Turm" spot="1"
                   number="4236" bikes="3" bike_racks="18" free_racks="6" terminal_type="character"
                   bike_numbers="06235,03140,03317" bike_types="{&quot;5&quot;:2,&quot;4&quot;:1}" place_type="9">
                <bike number="06235" bike_type="0" active="1" state="ok"/>
                <bike number="03140" bike_type="0" active="1" state="ok"/>
                <bike number="03317" bike_type="0" active="1" state="ok"/>
            </place>
            <place uid="278856" lat="50.112611493701" lng="8.6671507358551" name="4235 - Trianon" spot="1" number="4235"
                   bikes="0" bike_racks="13" free_racks="6" terminal_type="character" place_type="9"/>
            <place uid="352024" lat="50.110660918387" lng="8.701177239418" name="4285 - Sonnemannstraße / Windeckstraße"
                   spot="1" number="4285" bikes="3" free_racks="0" terminal_type="free" bike_numbers="03025,03017,06243"
                   bike_types="{&quot;4&quot;:2,&quot;5&quot;:1}" place_type="0">
                <bike number="03025" bike_type="0" active="1" state="ok"/>
                <bike number="03017" bike_type="0" active="1" state="ok"/>
                <bike number="06243" bike_type="0" active="1" state="ok"/>
            </place>
            <place uid="353585" lat="50.117076532766" lng="8.6659866571426"
                   name="4257 - Bockenheimer Landstr. / Liebigstr." spot="1" number="4257" bikes="3" free_racks="0"
                   terminal_type="free" bike_numbers="06090,06031,03151" bike_types="{&quot;5&quot;:2,&quot;4&quot;:1}"
                   place_type="0">
                <bike number="06090" bike_type="0" active="1" state="ok"/>
                <bike number="06031" bike_type="0" active="1" state="ok"/>
                <bike number="03151" bike_type="0" active="1" state="ok"/>
            </place>
            <place uid="706050" lat="50.13609128399" lng="8.6640501022339" name="USCC Haltestelle Platenstraße" spot="1"
                   number="4273" bikes="2" free_racks="0" terminal_type="free" bike_numbers="06046,03341"
                   bike_types="{&quot;5&quot;:1,&quot;4&quot;:1}" place_type="0">
                <bike number="06046" bike_type="0" active="1" state="ok"/>
                <bike number="03341" bike_type="0" active="1" state="ok"/>
            </place>
            <place uid="706056" lat="50.135929678403" lng="8.6668235063553" name="USCC Jakob-Leisler Straße" spot="1"
                   number="4274" bikes="3" free_racks="0" terminal_type="free" bike_numbers="06230,06176,06134"
                   bike_types="{&quot;5&quot;:2,&quot;4&quot;:1}" place_type="0">
                <bike number="06230" bike_type="0" active="1" state="ok"/>
                <bike number="06176" bike_type="0" active="1" state="ok"/>
                <bike number="06134" bike_type="0" active="1" state="ok"/>
            </place>
            <place uid="706061" lat="50.133539915042" lng="8.6681270599365" name="USCC Plieninger Straße" spot="1"
                   number="4275" bikes="3" free_racks="0" terminal_type="free" bike_numbers="06057,06227,06165"
                   bike_types="{&quot;5&quot;:2,&quot;undefined&quot;:1}" place_type="0">
                <bike number="06057" bike_type="0" active="1" state="ok"/>
                <bike number="06227" bike_type="0" active="1" state="ok"/>
                <bike number="06165" bike_type="0" active="1" state="ok"/>
            </place>
            <place uid="706063" lat="50.140695094739" lng="8.6933344602585" name="US Konsulat Gießener straße" spot="1"
                   number="4276" bikes="2" free_racks="0" terminal_type="free" bike_numbers="06212,02319"
                   bike_types="{&quot;5&quot;:1,&quot;4&quot;:1}" place_type="0">
                <bike number="06212" bike_type="0" active="1" state="ok"/>
                <bike number="02319" bike_type="0" active="1" state="ok"/>
            </place>
            <place uid="1991242" lat="50.108744667392" lng="8.6549735069275"
                   name="4295 - Hotel Adina Apartment Frankfurt / Osloer Straße" spot="1" number="4295" bikes="4"
                   free_racks="0" terminal_type="free" bike_numbers="06170,06137,03069,06283"
                   bike_types="{&quot;5&quot;:2,&quot;4&quot;:1,&quot;undefined&quot;:1}" place_type="0">
                <bike number="06170" bike_type="0" active="1" state="ok"/>
                <bike number="06137" bike_type="0" active="1" state="ok"/>
                <bike number="03069" bike_type="0" active="1" state="ok"/>
                <bike number="06283" bike_type="0" active="1" state="ok"/>
            </place>
            <place uid="2913514" lat="50.096206296966" lng="8.6607885360718" name="Uniklinikum" spot="1" number="4278"
                   bikes="3" free_racks="0" terminal_type="free" bike_numbers="06095,03318,06280"
                   bike_types="{&quot;5&quot;:1,&quot;4&quot;:2}" place_type="0">
                <bike number="06095" bike_type="0" active="1" state="ok"/>
                <bike number="03318" bike_type="0" active="1" state="ok"/>
                <bike number="06280" bike_type="0" active="1" state="ok"/>
            </place>
        </city>
        <city uid="24" lat="47.6519" lng="9.47837" zoom="12" maps_icon="" alias="" break="0" name="Friedrichshafen"
              num_places="6" refresh_rate="4202"
              bounds="{&quot;south_west&quot;:{&quot;lat&quot;:47.6511,&quot;lng&quot;:9.4731},&quot;north_east&quot;:{&quot;lat&quot;:47.6793,&quot;lng&quot;:9.5228}}"
              booked_bikes="0" set_point_bikes="45" available_bikes="3">
            <place uid="19486" lat="47.67201265825" lng="9.5227754116058" name="Flughafen/ DB Haltestelle" spot="1"
                   number="9760" bikes="1" free_racks="0" terminal_type="free" bike_numbers="13115"
                   bike_types="{&quot;15&quot;:1}" place_type="0">
                <bike number="13115" bike_type="15" active="1" state="ok" electric_lock="1" boardcomputer="13684"/>
            </place>
            <place uid="19488" lat="47.67756801554" lng="9.5063924789429" name="Messeeingang West" spot="1"
                   number="9761" bikes="1" free_racks="0" terminal_type="free" bike_numbers="14035"
                   bike_types="{&quot;15&quot;:1}" place_type="0">
                <bike number="14035" bike_type="15" active="1" state="ok" electric_lock="1" boardcomputer="20970"/>
            </place>
            <place uid="402041" lat="47.679258344995" lng="9.5136451721191" name="Messeeingang Ost" number="9762"
                   bikes="0" free_racks="0" bike_numbers="13419" bike_types="{&quot;15&quot;:1}" place_type="0">
                <bike number="13419" bike_type="15" active="1" state="ok" electric_lock="1" boardcomputer="12847"/>
            </place>
            <place uid="402824" lat="47.652784679433" lng="9.4730687141418" name="Stadtbahnhof" spot="1" number="9764"
                   bikes="0" free_racks="0" terminal_type="free" place_type="0"/>
            <place uid="402831" lat="47.651068196515" lng="9.4830143451691" name="Hafenbahnhof/ Zeppelinmuseum" spot="1"
                   number="9766" bikes="1" free_racks="0" terminal_type="free" bike_numbers="14630"
                   bike_types="{&quot;15&quot;:1}" place_type="0">
                <bike number="14630" bike_type="15" active="1" state="ok" electric_lock="1" boardcomputer="20142"/>
            </place>
            <place uid="402843" lat="47.670897" lng="9.493965" name="Camping am Messegelände" spot="1" number="9767"
                   bikes="0" free_racks="0" terminal_type="free" place_type="0"/>
        </city>
        <city uid="32" lat="50.1093" lng="8.73825" zoom="12" maps_icon="" alias="" break="1" name="Offenbach am Main"
              num_places="1" refresh_rate="10120"
              bounds="{&quot;south_west&quot;:{&quot;lat&quot;:50.107,&quot;lng&quot;:8.7415},&quot;north_east&quot;:{&quot;lat&quot;:50.107,&quot;lng&quot;:8.7415}}"
              booked_bikes="0" set_point_bikes="3" available_bikes="3">
            <place uid="44537" lat="50.106979722073" lng="8.7414801120758" name="4287 - Hotel Macrander" spot="1"
                   number="4287" bikes="3" free_racks="0" terminal_type="free" bike_numbers="06015,06072,06177"
                   bike_types="{&quot;5&quot;:3}" place_type="7">
                <bike number="06015" bike_type="0" active="1" state="ok"/>
                <bike number="06072" bike_type="0" active="1" state="ok"/>
                <bike number="06177" bike_type="0" active="1" state="ok"/>
            </place>
        </city>
        <city uid="42" lat="52.1268" lng="11.6342" zoom="14" maps_icon="" alias="magdeburg" break="0" name="Magdeburg"
              num_places="19" refresh_rate="2414"
              bounds="{&quot;south_west&quot;:{&quot;lat&quot;:52.1071,&quot;lng&quot;:11.5974},&quot;north_east&quot;:{&quot;lat&quot;:52.1436,&quot;lng&quot;:11.6532}}"
              booked_bikes="0" set_point_bikes="61" available_bikes="51">
            <place uid="33" lat="52.139915138248" lng="11.640052199364"
                   name="Campus Tower Universität Magdeburg (Universitätsplatz 1)" spot="1" number="4207" bikes="1"
                   free_racks="0" bike_numbers="07045" bike_types="{&quot;4&quot;:1}" place_type="0">
                <bike number="07045" bike_type="0" active="1" state="ok"/>
            </place>
            <place uid="271" lat="52.143579354027" lng="11.653237938881" name="sleep &amp; go Hotel Magdeburg" spot="1"
                   number="4204" bikes="4" free_racks="0" bike_numbers="07069,07001,07000,07092"
                   bike_types="{&quot;5&quot;:1,&quot;4&quot;:2,&quot;undefined&quot;:1}" place_type="7">
                <bike number="07069" bike_type="0" active="1" state="ok"/>
                <bike number="07001" bike_type="0" active="1" state="ok"/>
                <bike number="07000" bike_type="0" active="1" state="ok"/>
                <bike number="07092" bike_type="0" active="1" state="ok"/>
            </place>
            <place uid="1531" lat="52.128285100395" lng="11.631828546524"
                   name="Jugendherberge Magdeburg (Leiterstraße 10)" spot="1" number="4202" bikes="0" free_racks="0"
                   place_type="7"/>
            <place uid="7531" lat="52.1071114302" lng="11.643780469894" name="Mückenwirt Biergarten (An der Elbe 14)"
                   spot="1" number="4208" bikes="4" free_racks="0" bike_numbers="07063,07016,07018,07020"
                   bike_types="{&quot;4&quot;:4}" place_type="0">
                <bike number="07063" bike_type="0" active="1" state="ok"/>
                <bike number="07016" bike_type="0" active="1" state="ok"/>
                <bike number="07018" bike_type="0" active="1" state="ok"/>
                <bike number="07020" bike_type="0" active="1" state="ok"/>
            </place>
            <place uid="7532" lat="52.130372935533" lng="11.628427505493" name="Hauptbahnhof Magdeburg (Vorplatz)"
                   spot="1" number="4209" bikes="5" free_racks="0" bike_numbers="07026,07024,07046,07062,07097"
                   bike_types="{&quot;4&quot;:3,&quot;5&quot;:2}" place_type="0">
                <bike number="07026" bike_type="0" active="1" state="ok"/>
                <bike number="07024" bike_type="0" active="1" state="ok"/>
                <bike number="07046" bike_type="0" active="1" state="ok"/>
                <bike number="07062" bike_type="0" active="1" state="ok"/>
                <bike number="07097" bike_type="0" active="1" state="ok"/>
            </place>
            <place uid="7536" lat="52.131028245317" lng="11.637412905693"
                   name="Tourist-Information Magdeburg (Ernst-Reuter-Allee 12)" spot="1" number="4211" bikes="5"
                   free_racks="0" bike_numbers="07077,07011,07005,07031,07054"
                   bike_types="{&quot;5&quot;:1,&quot;4&quot;:4,&quot;undefined&quot;:1}" place_type="8">
                <bike number="07077" bike_type="0" active="1" state="ok"/>
                <bike number="07011" bike_type="0" active="1" state="ok"/>
                <bike number="07005" bike_type="0" active="1" state="ok"/>
                <bike number="07031" bike_type="0" active="1" state="ok"/>
                <bike number="07054" bike_type="0" active="1" state="ok"/>
            </place>
            <place uid="7537" lat="52.120430143993" lng="11.628030538559" name="Hasselbachplatz (Liebig-Lounge)"
                   spot="1" number="4214" bikes="5" free_racks="0" bike_numbers="07095,07029,07039,07010,07055"
                   bike_types="{&quot;5&quot;:1,&quot;4&quot;:3,&quot;undefined&quot;:1}" place_type="0">
                <bike number="07095" bike_type="0" active="1" state="ok"/>
                <bike number="07029" bike_type="0" active="1" state="ok"/>
                <bike number="07039" bike_type="0" active="1" state="ok"/>
                <bike number="07010" bike_type="0" active="1" state="ok"/>
                <bike number="07055" bike_type="0" active="1" state="ok"/>
            </place>
            <place uid="9920" lat="52.120973613229" lng="11.638984680176" name="MDR Funkhaus / Stadtpark" spot="1"
                   number="4217" bikes="3" free_racks="0" bike_numbers="07023,07040,07022"
                   bike_types="{&quot;4&quot;:3}" place_type="0">
                <bike number="07023" bike_type="0" active="1" state="ok"/>
                <bike number="07040" bike_type="0" active="1" state="ok"/>
                <bike number="07022" bike_type="0" active="1" state="ok"/>
            </place>
            <place uid="12097" lat="52.12736958347" lng="11.634060144424" name="Am Hundertwasserhaus" spot="1"
                   number="4219" bikes="4" free_racks="0" bike_numbers="07061,07068,07003,07047"
                   bike_types="{&quot;5&quot;:2,&quot;4&quot;:2}" place_type="0">
                <bike number="07061" bike_type="0" active="1" state="ok"/>
                <bike number="07068" bike_type="0" active="1" state="ok"/>
                <bike number="07003" bike_type="0" active="1" state="ok"/>
                <bike number="07047" bike_type="0" active="1" state="ok"/>
            </place>
            <place uid="12205" lat="52.129500271863" lng="11.628009080887" name="Hotel - INTER City (am Hbf)" spot="1"
                   number="4221" bikes="1" free_racks="0" bike_numbers="07017" bike_types="{&quot;4&quot;:1}"
                   place_type="7">
                <bike number="07017" bike_type="0" active="1" state="ok"/>
            </place>
            <place uid="12878" lat="52.125367236294" lng="11.631817817688" name="Domplatz (Breiter Weg)" spot="1"
                   number="4206" bikes="2" free_racks="0" bike_numbers="07050,07007" bike_types="{&quot;4&quot;:2}"
                   place_type="0">
                <bike number="07050" bike_type="0" active="1" state="ok"/>
                <bike number="07007" bike_type="0" active="1" state="ok"/>
            </place>
            <place uid="59615" lat="52.12993825237" lng="11.635444164276" name="Allee Center/ Ecke Ulrichhaus" spot="1"
                   number="4215" bikes="5" free_racks="0" bike_numbers="07025,07028,07032,07021,07014"
                   bike_types="{&quot;4&quot;:4,&quot;undefined&quot;:1}" place_type="0">
                <bike number="07025" bike_type="0" active="1" state="ok"/>
                <bike number="07028" bike_type="0" active="1" state="ok"/>
                <bike number="07032" bike_type="0" active="1" state="ok"/>
                <bike number="07021" bike_type="0" active="1" state="ok"/>
                <bike number="07014" bike_type="0" active="1" state="ok"/>
            </place>
            <place uid="94304" lat="52.12659236729" lng="11.612323522568" name="Lessingstraße / Winckelmannstraße"
                   spot="1" number="4222" bikes="1" free_racks="0" bike_numbers="07083" bike_types="{&quot;5&quot;:1}"
                   place_type="0">
                <bike number="07083" bike_type="0" active="1" state="ok"/>
            </place>
            <place uid="106832" lat="52.132579216503" lng="11.647245883942"
                   name="Am Petriförder / Weiße Flotte Magdeburg" spot="1" number="4224" bikes="2" free_racks="0"
                   bike_numbers="07019,07027" bike_types="{&quot;4&quot;:2}" place_type="0">
                <bike number="07019" bike_type="0" active="1" state="ok"/>
                <bike number="07027" bike_type="0" active="1" state="ok"/>
            </place>
            <place uid="126422" lat="52.109048705344" lng="11.597421169281" name="Hotel - Plaza / Halberstädter Straße"
                   spot="1" number="4228" bikes="4" free_racks="0" bike_numbers="07091,07070,07076,07071"
                   bike_types="{&quot;5&quot;:4}" place_type="7">
                <bike number="07091" bike_type="0" active="1" state="ok"/>
                <bike number="07070" bike_type="0" active="1" state="ok"/>
                <bike number="07076" bike_type="0" active="1" state="ok"/>
                <bike number="07071" bike_type="0" active="1" state="ok"/>
            </place>
            <place uid="126431" lat="52.132954602688" lng="11.610413789749" name="Hotel - Best Western / Goethestraße"
                   spot="1" number="4226" bikes="0" free_racks="0" place_type="7"/>
            <place uid="207380" lat="52.131024952327" lng="11.639370918274" name="Rathaus, Alter Markt" spot="1"
                   number="4223" bikes="0" free_racks="0" place_type="0"/>
            <place uid="219897" lat="52.11771269841" lng="11.640615463257" name="Stadtpark - Aussichtsturm" spot="1"
                   number="4225" bikes="2" free_racks="0" bike_numbers="07049,07030" bike_types="{&quot;4&quot;:2}"
                   place_type="0">
                <bike number="07049" bike_type="0" active="1" state="ok"/>
                <bike number="07030" bike_type="0" active="1" state="ok"/>
            </place>
            <place uid="236643" lat="52.130366349457" lng="11.638072729111" name="Allee Center /Ernst-Reuter-Allee"
                   spot="1" number="4227" bikes="2" free_racks="0" bike_numbers="07037,07013"
                   bike_types="{&quot;4&quot;:2}" place_type="0">
                <bike number="07037" bike_type="0" active="1" state="ok"/>
                <bike number="07013" bike_type="0" active="1" state="ok"/>
            </place>
        </city>
        <city uid="43" lat="53.5506" lng="9.99052" zoom="13" maps_icon="" alias="hamburg" break="0" name="Hamburg"
              num_places="50" refresh_rate="1534"
              bounds="{&quot;south_west&quot;:{&quot;lat&quot;:53.5409,&quot;lng&quot;:9.9147},&quot;north_east&quot;:{&quot;lat&quot;:53.6613,&quot;lng&quot;:10.0558}}"
              booked_bikes="0" set_point_bikes="206" available_bikes="123">
            <place uid="1420" lat="53.554535533933" lng="9.9911212921143" name="Neuer Jungfernstieg" spot="1"
                   number="2813" bikes="4" free_racks="0" terminal_type="free" bike_numbers="02102,02112,02202,02442"
                   bike_types="{&quot;5&quot;:4}" place_type="0">
                <bike number="02102" bike_type="0" active="1" state="ok"/>
                <bike number="02112" bike_type="0" active="1" state="ok"/>
                <bike number="02202" bike_type="0" active="1" state="ok"/>
                <bike number="02442" bike_type="0" active="1" state="ok"/>
            </place>
            <place uid="1422" lat="53.560691929808" lng="9.9892973899841"
                   name="Bahnhof Dammtor / Ausgang Dag-Hammarskjoeld-Platz" spot="1" number="2821" bikes="1"
                   free_racks="0" terminal_type="free" bike_numbers="02199" bike_types="{&quot;5&quot;:1}"
                   place_type="0">
                <bike number="02199" bike_type="0" active="1" state="ok"/>
            </place>
            <place uid="13713" lat="53.570517363842" lng="9.9952056258917" name="Mittelweg / Ecke Milchstraße" spot="1"
                   number="2814" bikes="1" free_racks="0" terminal_type="free" bike_numbers="02130"
                   bike_types="{&quot;5&quot;:1}" place_type="0">
                <bike number="02130" bike_type="0" active="1" state="ok"/>
            </place>
            <place uid="13715" lat="53.540919453058" lng="9.9935245513916" name="HafenCity / Marco-Polo-Terrassen"
                   spot="1" number="2828" bikes="3" free_racks="0" terminal_type="free" bike_numbers="02255,02256,02454"
                   bike_types="{&quot;4&quot;:1,&quot;5&quot;:1,&quot;14&quot;:1}" place_type="0">
                <bike number="02255" bike_type="0" active="1" state="ok"/>
                <bike number="02256" bike_type="0" active="1" state="ok"/>
                <bike number="02454" bike_type="0" active="1" state="ok"/>
            </place>
            <place uid="13717" lat="53.551794821121" lng="9.9942755699158" name="Jungfernstieg / Ecke Reesendamm"
                   spot="1" number="2840" bikes="0" free_racks="0" terminal_type="free" place_type="0"/>
            <place uid="14294" lat="53.547106515957" lng="9.9720293283463" name="Jugendherberge Stintfang" spot="1"
                   number="2803" bikes="4" free_racks="0" terminal_type="free" bike_numbers="02238,02160,02187,02336"
                   bike_types="{&quot;5&quot;:3,&quot;undefined&quot;:1}" place_type="0">
                <bike number="02238" bike_type="0" active="1" state="ok"/>
                <bike number="02160" bike_type="0" active="1" state="ok"/>
                <bike number="02187" bike_type="0" active="1" state="ok"/>
                <bike number="02336" bike_type="0" active="1" state="ok"/>
            </place>
            <place uid="18404" lat="53.590537105743" lng="9.9870228767395" name="Marie-Jonas-Platz" spot="1"
                   number="2849" bikes="5" free_racks="0" terminal_type="free"
                   bike_numbers="02185,10443,02190,02179,10669" bike_types="{&quot;5&quot;:5}" place_type="0">
                <bike number="02185" bike_type="0" active="1" state="ok"/>
                <bike number="10443" bike_type="0" active="1" state="ok"/>
                <bike number="02190" bike_type="0" active="1" state="ok"/>
                <bike number="02179" bike_type="0" active="1" state="ok"/>
                <bike number="10669" bike_type="0" active="1" state="ok"/>
            </place>
            <place uid="19315" lat="53.591734295363" lng="10.055783987045" name="B&amp;B Hotel Hamburg Nord" spot="1"
                   number="2801" bikes="5" free_racks="0" terminal_type="free"
                   bike_numbers="02224,02198,10122,02410,02054" bike_types="{&quot;5&quot;:3,&quot;4&quot;:2}"
                   place_type="0">
                <bike number="02224" bike_type="0" active="1" state="ok"/>
                <bike number="02198" bike_type="0" active="1" state="ok"/>
                <bike number="10122" bike_type="0" active="1" state="ok"/>
                <bike number="02410" bike_type="0" active="1" state="ok"/>
                <bike number="02054" bike_type="0" active="1" state="ok"/>
            </place>
            <place uid="24434" lat="53.554325206448" lng="10.007772445679" name="Hauptbahnhof Nord / Ecke Kirchenallee"
                   spot="1" number="2825" bikes="5" free_racks="0" terminal_type="free"
                   bike_numbers="02215,02191,02246,02077,02253" bike_types="{&quot;5&quot;:4,&quot;4&quot;:1}"
                   place_type="0">
                <bike number="02215" bike_type="0" active="1" state="ok"/>
                <bike number="02191" bike_type="0" active="1" state="ok"/>
                <bike number="02246" bike_type="0" active="1" state="ok"/>
                <bike number="02077" bike_type="0" active="1" state="ok"/>
                <bike number="02253" bike_type="0" active="1" state="ok"/>
            </place>
            <place uid="26609" lat="53.572798169271" lng="9.9888736009598" name="U-Bahn-Station Hallerstraße" spot="1"
                   number="2848" bikes="3" free_racks="0" terminal_type="free" bike_numbers="02325,02261,02310"
                   bike_types="{&quot;5&quot;:1,&quot;4&quot;:2}" place_type="0">
                <bike number="02325" bike_type="0" active="1" state="ok"/>
                <bike number="02261" bike_type="0" active="1" state="ok"/>
                <bike number="02310" bike_type="0" active="1" state="ok"/>
            </place>
            <place uid="44524" lat="53.555670009612" lng="10.001458525658" name="Ballindamm / Kunsthalle" spot="1"
                   number="2831" bikes="5" free_racks="0" terminal_type="free"
                   bike_numbers="10123,02149,02188,02298,10111" bike_types="{&quot;5&quot;:4,&quot;4&quot;:1}"
                   place_type="0">
                <bike number="10123" bike_type="0" active="1" state="ok"/>
                <bike number="02149" bike_type="0" active="1" state="ok"/>
                <bike number="02188" bike_type="0" active="1" state="ok"/>
                <bike number="02298" bike_type="0" active="1" state="ok"/>
                <bike number="10111" bike_type="0" active="1" state="ok"/>
            </place>
            <place uid="48334" lat="53.581856466584" lng="10.011420249939" name="Mühlenkamp / Preystraße " spot="1"
                   number="2843" bikes="1" free_racks="0" terminal_type="free" bike_numbers="02347"
                   bike_types="{&quot;5&quot;:1}" place_type="0">
                <bike number="02347" bike_type="0" active="1" state="ok"/>
            </place>
            <place uid="55206" lat="53.567446364446" lng="10.001066923142" name="Alsterufer / Ecke Alte Rabenstraße"
                   spot="1" number="2851" bikes="0" free_racks="0" terminal_type="free" place_type="0"/>
            <place uid="55215" lat="53.573677329575" lng="10.002257823944" name="Alsterufer / Cliff Restaurant" spot="1"
                   number="2823" bikes="0" free_racks="0" terminal_type="free" place_type="0"/>
            <place uid="55217" lat="53.580506126235" lng="10.00039100647" name="Fernsicht / Ecke Agnesstraße" spot="1"
                   number="2837" bikes="0" free_racks="0" terminal_type="free" place_type="0"/>
            <place uid="66311" lat="53.557205964727" lng="10.003931522369" name="Atlantic / Holzdamm" spot="1"
                   number="2805" bikes="4" free_racks="0" terminal_type="free" bike_numbers="02126,02316,02350,02086"
                   bike_types="{&quot;5&quot;:2,&quot;4&quot;:2}" place_type="0">
                <bike number="02126" bike_type="0" active="1" state="ok"/>
                <bike number="02316" bike_type="0" active="1" state="ok"/>
                <bike number="02350" bike_type="0" active="1" state="ok"/>
                <bike number="02086" bike_type="0" active="1" state="ok"/>
            </place>
            <place uid="67700" lat="53.545190886286" lng="10.018029212952" name="Mercure Hotel " spot="1" number="2817"
                   bikes="2" free_racks="0" terminal_type="free" bike_numbers="02248,02262"
                   bike_types="{&quot;5&quot;:1,&quot;4&quot;:1}" place_type="0">
                <bike number="02248" bike_type="0" active="1" state="ok"/>
                <bike number="02262" bike_type="0" active="1" state="ok"/>
            </place>
            <place uid="69275" lat="53.546025996736" lng="9.9701249599457" name="Landungsbrücken" spot="1" number="2830"
                   bikes="4" free_racks="0" terminal_type="free" bike_numbers="02135,02242,02166,02322"
                   bike_types="{&quot;5&quot;:3,&quot;4&quot;:1}" place_type="0">
                <bike number="02135" bike_type="0" active="1" state="ok"/>
                <bike number="02242" bike_type="0" active="1" state="ok"/>
                <bike number="02166" bike_type="0" active="1" state="ok"/>
                <bike number="02322" bike_type="0" active="1" state="ok"/>
            </place>
            <place uid="69615" lat="53.553276740208" lng="10.005310177803"
                   name="Hauptbahnhof / Ausgang Glockengießerwall" spot="1" number="2842" bikes="5" free_racks="0"
                   terminal_type="free" bike_numbers="10269,02152,02331,02076,10020"
                   bike_types="{&quot;5&quot;:3,&quot;4&quot;:1,&quot;undefined&quot;:1}" place_type="0">
                <bike number="10269" bike_type="0" active="1" state="ok"/>
                <bike number="02152" bike_type="0" active="1" state="ok"/>
                <bike number="02331" bike_type="0" active="1" state="ok"/>
                <bike number="02076" bike_type="0" active="1" state="ok"/>
                <bike number="10020" bike_type="0" active="1" state="ok"/>
            </place>
            <place uid="94631" lat="53.5509741" lng="10.0001451" name="Mönckebergstraße / Gerhard Hauptmann Platz"
                   spot="1" number="2836" bikes="3" free_racks="0" terminal_type="free" bike_numbers="02163,02058,02244"
                   bike_types="{&quot;5&quot;:2,&quot;4&quot;:1}" place_type="0">
                <bike number="02163" bike_type="0" active="1" state="ok"/>
                <bike number="02058" bike_type="0" active="1" state="ok"/>
                <bike number="02244" bike_type="0" active="1" state="ok"/>
            </place>
            <place uid="95334" lat="53.551565358042" lng="10.005326271057" name="Hauptbahnhof Süd / SATURN" spot="1"
                   number="2847" bikes="1" free_racks="0" terminal_type="free" bike_numbers="02250"
                   bike_types="{&quot;5&quot;:1}" place_type="0">
                <bike number="02250" bike_type="0" active="1" state="ok"/>
            </place>
            <place uid="96028" lat="53.550934328159" lng="9.9922585487366" name="Rathaus" spot="1" number="2804"
                   bikes="2" free_racks="0" terminal_type="free" bike_numbers="02239,02104"
                   bike_types="{&quot;5&quot;:2}" place_type="0">
                <bike number="02239" bike_type="0" active="1" state="ok"/>
                <bike number="02104" bike_type="0" active="1" state="ok"/>
            </place>
            <place uid="97459" lat="53.543775623322" lng="9.9897909164429" name="Miniaturwunderland / Hamburg Dungeon"
                   spot="1" number="2815" bikes="4" free_racks="0" terminal_type="free"
                   bike_numbers="02109,02243,02293,02073" bike_types="{&quot;5&quot;:2,&quot;4&quot;:2}" place_type="0">
                <bike number="02109" bike_type="0" active="1" state="ok"/>
                <bike number="02243" bike_type="0" active="1" state="ok"/>
                <bike number="02293" bike_type="0" active="1" state="ok"/>
                <bike number="02073" bike_type="0" active="1" state="ok"/>
            </place>
            <place uid="97629" lat="53.5460277" lng="9.9727882" name="Landungsbrücken / Eingang Hafentor" spot="1"
                   number="2829" bikes="4" free_racks="0" terminal_type="free" bike_numbers="02214,02192,10083,02451"
                   bike_types="{&quot;5&quot;:3,&quot;14&quot;:1}" place_type="0">
                <bike number="02214" bike_type="0" active="1" state="ok"/>
                <bike number="02192" bike_type="0" active="1" state="ok"/>
                <bike number="10083" bike_type="0" active="1" state="ok"/>
                <bike number="02451" bike_type="0" active="1" state="ok"/>
            </place>
            <place uid="99040" lat="53.547179824522" lng="9.9422836303711" name="S-Bahn-Station Königsstraße" spot="1"
                   number="2841" bikes="0" free_racks="0" terminal_type="free" place_type="0"/>
            <place uid="122661" lat="53.544237820259" lng="9.9812293052673" name="U-Bahn-Station Baumwall" spot="1"
                   number="2809" bikes="1" free_racks="0" terminal_type="free" bike_numbers="02284"
                   bike_types="{&quot;5&quot;:1}" place_type="0">
                <bike number="02284" bike_type="0" active="1" state="ok"/>
            </place>
            <place uid="122663" lat="53.555383206836" lng="9.988015294075" name="Gänsemarkt" spot="1" number="2834"
                   bikes="0" free_racks="0" terminal_type="free" place_type="0"/>
            <place uid="122664" lat="53.54978060273" lng="9.9858427047729" name="S-Bahn-Station Stadthausbrücke"
                   spot="1" number="2846" bikes="5" free_racks="0" terminal_type="free"
                   bike_numbers="02200,02089,02062,02461,10217"
                   bike_types="{&quot;5&quot;:1,&quot;4&quot;:2,&quot;14&quot;:1,&quot;undefined&quot;:1}"
                   place_type="0">
                <bike number="02200" bike_type="0" active="1" state="ok"/>
                <bike number="02089" bike_type="0" active="1" state="ok"/>
                <bike number="02062" bike_type="0" active="1" state="ok"/>
                <bike number="02461" bike_type="0" active="1" state="ok"/>
                <bike number="10217" bike_type="0" active="1" state="ok"/>
            </place>
            <place uid="122671" lat="53.553279927074" lng="10.02388715744" name="U Bahn Berliner Tor" spot="1"
                   number="2802" bikes="1" free_racks="0" terminal_type="free" bike_numbers="02059"
                   bike_types="{&quot;4&quot;:1}" place_type="0">
                <bike number="02059" bike_type="0" active="1" state="ok"/>
            </place>
            <place uid="125746" lat="53.563330110949" lng="9.9296236038208" name="B&amp;B Hotel Hamburg Altona" spot="1"
                   number="2826" bikes="3" free_racks="0" terminal_type="free" bike_numbers="02129,10651,02469"
                   bike_types="{&quot;5&quot;:2,&quot;14&quot;:1}" place_type="0">
                <bike number="02129" bike_type="0" active="1" state="ok"/>
                <bike number="10651" bike_type="0" active="1" state="ok"/>
                <bike number="02469" bike_type="0" active="1" state="ok"/>
            </place>
            <place uid="150742" lat="53.552132639502" lng="10.01043856144" name="Hauptbahnhof ZOB" spot="1"
                   number="2808" bikes="2" free_racks="0" terminal_type="free" bike_numbers="02137,02217"
                   bike_types="{&quot;5&quot;:2}" place_type="0">
                <bike number="02137" bike_type="0" active="1" state="ok"/>
                <bike number="02217" bike_type="0" active="1" state="ok"/>
            </place>
            <place uid="153986" lat="53.552291986858" lng="9.9360018968582" name="Bahnhof Altona / Reisezentrum"
                   spot="1" number="2819" bikes="0" free_racks="0" terminal_type="free" place_type="0"/>
            <place uid="153987" lat="53.581416973752" lng="9.9474227428436"
                   name="U-Bahn Lutterothstraße / Else Rauch Platz" spot="1" number="2832" bikes="1" free_racks="0"
                   terminal_type="free" bike_numbers="02240" bike_types="{&quot;5&quot;:1}" place_type="0">
                <bike number="02240" bike_type="0" active="1" state="ok"/>
            </place>
            <place uid="153990" lat="53.550354282289" lng="9.9699211120605" name="U-Bahn-Station St.Pauli" spot="1"
                   number="2844" bikes="5" free_racks="0" terminal_type="free"
                   bike_numbers="02121,02098,02194,02280,02296" bike_types="{&quot;5&quot;:3,&quot;4&quot;:2}"
                   place_type="0">
                <bike number="02121" bike_type="0" active="1" state="ok"/>
                <bike number="02098" bike_type="0" active="1" state="ok"/>
                <bike number="02194" bike_type="0" active="1" state="ok"/>
                <bike number="02280" bike_type="0" active="1" state="ok"/>
                <bike number="02296" bike_type="0" active="1" state="ok"/>
            </place>
            <place uid="153993" lat="53.55218681767" lng="9.9339473247528" name="Bahnhof Altona / Ausgang Hauptstraße"
                   spot="1" number="2852" bikes="1" free_racks="0" terminal_type="free" bike_numbers="02267"
                   bike_types="{&quot;4&quot;:1}" place_type="0">
                <bike number="02267" bike_type="0" active="1" state="ok"/>
            </place>
            <place uid="154507" lat="53.5454809456" lng="9.9529749155045" name="Fischmarkt" spot="1" number="2812"
                   bikes="3" free_racks="0" terminal_type="free" bike_numbers="10082,02312,02049"
                   bike_types="{&quot;5&quot;:1,&quot;4&quot;:2}" place_type="0">
                <bike number="10082" bike_type="0" active="1" state="ok"/>
                <bike number="02312" bike_type="0" active="1" state="ok"/>
                <bike number="02049" bike_type="0" active="1" state="ok"/>
            </place>
            <place uid="174066" lat="53.557031818232" lng="10.020193648234" name="U-Bahn Lohmühlenstraße / Motel One"
                   spot="1" number="2824" bikes="0" free_racks="0" terminal_type="free" place_type="0"/>
            <place uid="204633" lat="53.544183631914" lng="9.9146890640259" name="Museumshafen" spot="1" number="2800"
                   bikes="4" free_racks="0" terminal_type="free" bike_numbers="02247,02178,02260,02477"
                   bike_types="{&quot;5&quot;:2,&quot;4&quot;:1,&quot;14&quot;:1}" place_type="0">
                <bike number="02247" bike_type="0" active="1" state="ok"/>
